[
    {
        "\ufeffRow Labels": "Abbeville County",
        "Average of housing_cost": "9157.2",
        "Average of food_cost": "8703.223212",
        "Average of median_family_income": "53251.19922",
        "Average of total_tax_rate": "8.710063946",
        "latitude": "34.2264946",
        "longitude": "-82.4364036"
    },
    {
        "\ufeffRow Labels": "Acadia Parish",
        "Average of housing_cost": "9753.6",
        "Average of food_cost": "8165.987184",
        "Average of median_family_income": "58169.69531",
        "Average of total_tax_rate": "11.70975592",
        "latitude": "30.2740735",
        "longitude": "-92.3957036"
    },
    {
        "\ufeffRow Labels": "Accomack County",
        "Average of housing_cost": "9267.6",
        "Average of food_cost": "7951.092792",
        "Average of median_family_income": "59259.15625",
        "Average of total_tax_rate": "11.85193625",
        "latitude": "37.7422207",
        "longitude": "-75.6743538"
    },
    {
        "\ufeffRow Labels": "Ada County",
        "Average of housing_cost": "13957.1456",
        "Average of food_cost": "9374.768124",
        "Average of median_family_income": "87161.10156",
        "Average of total_tax_rate": "10.93792825",
        "latitude": "43.4136539",
        "longitude": "-116.2367421"
    },
    {
        "\ufeffRow Labels": "Adair County",
        "Average of housing_cost": "9207.6",
        "Average of food_cost": "7655.612937",
        "Average of median_family_income": "58264.41992",
        "Average of total_tax_rate": "12.50617199",
        "latitude": "40.1769782",
        "longitude": "-92.6161167"
    },
    {
        "\ufeffRow Labels": "Adams County",
        "Average of housing_cost": "10857.02533",
        "Average of food_cost": "8253.287962",
        "Average of median_family_income": "66764.91406",
        "Average of total_tax_rate": "11.31738496",
        "latitude": "39.9787786",
        "longitude": "-91.2110065"
    },
    {
        "\ufeffRow Labels": "Addison County",
        "Average of housing_cost": "13340.4",
        "Average of food_cost": "11443.12768",
        "Average of median_family_income": "86721.61719",
        "Average of total_tax_rate": "11.92962032",
        "latitude": "44.0285618",
        "longitude": "-73.1491036"
    },
    {
        "\ufeffRow Labels": "Aiken County",
        "Average of housing_cost": "10017.18313",
        "Average of food_cost": "7682.474496",
        "Average of median_family_income": "64666.42578",
        "Average of total_tax_rate": "7.953611151",
        "latitude": "33.5723191",
        "longitude": "-81.6182086"
    },
    {
        "\ufeffRow Labels": "Aitkin County",
        "Average of housing_cost": "9548.4",
        "Average of food_cost": "8192.84868",
        "Average of median_family_income": "62395.08594",
        "Average of total_tax_rate": "9.533953808",
        "latitude": "46.5714822",
        "longitude": "-93.3847595"
    },
    {
        "\ufeffRow Labels": "Alachua County",
        "Average of housing_cost": "14166.25046",
        "Average of food_cost": "9374.768124",
        "Average of median_family_income": "77956.63281",
        "Average of total_tax_rate": "8.262149223",
        "latitude": "29.675568",
        "longitude": "-82.3640109"
    },
    {
        "\ufeffRow Labels": "Alamance County",
        "Average of housing_cost": "11234.4",
        "Average of food_cost": "8031.678264",
        "Average of median_family_income": "66801.19531",
        "Average of total_tax_rate": "11.18219501",
        "latitude": "36.0702678",
        "longitude": "-79.3992505"
    },
    {
        "\ufeffRow Labels": "Alameda County",
        "Average of housing_cost": "30882.04788",
        "Average of food_cost": "10664.13463",
        "Average of median_family_income": "122820.7188",
        "Average of total_tax_rate": "16.19278157",
        "latitude": "37.6090291",
        "longitude": "-121.899142"
    },
    {
        "\ufeffRow Labels": "Alamosa County",
        "Average of housing_cost": "10842",
        "Average of food_cost": "9025.56438",
        "Average of median_family_income": "49323.58984",
        "Average of total_tax_rate": "14.23251662",
        "latitude": "37.5780995",
        "longitude": "-105.7890452"
    },
    {
        "\ufeffRow Labels": "Albany County",
        "Average of housing_cost": "12576.69657",
        "Average of food_cost": "9589.66206",
        "Average of median_family_income": "89601.86719",
        "Average of total_tax_rate": "12.01547605",
        "latitude": "42.5986896",
        "longitude": "-73.9843997"
    },
    {
        "\ufeffRow Labels": "Albemarle County",
        "Average of housing_cost": "17209.2942",
        "Average of food_cost": "9159.873792",
        "Average of median_family_income": "105842.1484",
        "Average of total_tax_rate": "12.53415309",
        "latitude": "38.0085107",
        "longitude": "-78.6086754"
    },
    {
        "\ufeffRow Labels": "Alcona County",
        "Average of housing_cost": "9778.8",
        "Average of food_cost": "7897.369332",
        "Average of median_family_income": "52728.54297",
        "Average of total_tax_rate": "12.79411436",
        "latitude": "44.6765986",
        "longitude": "-83.5908023"
    },
    {
        "\ufeffRow Labels": "Alcorn County",
        "Average of housing_cost": "9003.6",
        "Average of food_cost": "7333.271544",
        "Average of median_family_income": "54691.83594",
        "Average of total_tax_rate": "9.219199059",
        "latitude": "34.8734817",
        "longitude": "-88.5667345"
    },
    {
        "\ufeffRow Labels": "Aleutians East Borough",
        "Average of housing_cost": "13972.8",
        "Average of food_cost": "9558.261408",
        "Average of median_family_income": "79776.17188",
        "Average of total_tax_rate": "8.996825848",
        "latitude": "55.0512443",
        "longitude": "-162.8916892"
    },
    {
        "\ufeffRow Labels": "Aleutians West Census Area",
        "Average of housing_cost": "19893.6",
        "Average of food_cost": "14205.24913",
        "Average of median_family_income": "98061.89063",
        "Average of total_tax_rate": "11.3363251",
        "latitude": "51.5672222",
        "longitude": "178.8776"
    },
    {
        "\ufeffRow Labels": "Alexander County",
        "Average of housing_cost": "7900.18872",
        "Average of food_cost": "7588.45812",
        "Average of median_family_income": "54245.16602",
        "Average of total_tax_rate": "14.39003993",
        "latitude": "37.1801529",
        "longitude": "-89.3502834"
    },
    {
        "\ufeffRow Labels": "Alexandria city",
        "Average of housing_cost": "23908.60272",
        "Average of food_cost": "10153.75984",
        "Average of median_family_income": "133892.9844",
        "Average of total_tax_rate": "12.23133627",
        "latitude": "31.2897855",
        "longitude": "-92.45510455574905"
    },
    {
        "\ufeffRow Labels": "Alfalfa County",
        "Average of housing_cost": "9478.8",
        "Average of food_cost": "8139.124812",
        "Average of median_family_income": "75357.73438",
        "Average of total_tax_rate": "11.61420315",
        "latitude": "36.7201825",
        "longitude": "-98.3087911"
    },
    {
        "\ufeffRow Labels": "Alger County",
        "Average of housing_cost": "9218.4",
        "Average of food_cost": "8192.84868",
        "Average of median_family_income": "60201.78516",
        "Average of total_tax_rate": "12.90464045",
        "latitude": "46.4047895",
        "longitude": "-86.5280993"
    },
    {
        "\ufeffRow Labels": "Allamakee County",
        "Average of housing_cost": "9208.8",
        "Average of food_cost": "7843.645656",
        "Average of median_family_income": "70652.82031",
        "Average of total_tax_rate": "10.16966012",
        "latitude": "43.2961731",
        "longitude": "-91.3961856"
    },
    {
        "\ufeffRow Labels": "Allegan County",
        "Average of housing_cost": "11126.4",
        "Average of food_cost": "7682.474496",
        "Average of median_family_income": "75065.09375",
        "Average of total_tax_rate": "9.996382613",
        "latitude": "42.5867203",
        "longitude": "-85.8861492"
    },
    {
        "\ufeffRow Labels": "Allegany County",
        "Average of housing_cost": "9493.844526",
        "Average of food_cost": "8286.864768",
        "Average of median_family_income": "62233.87305",
        "Average of total_tax_rate": "10.44957899",
        "latitude": "42.2446061",
        "longitude": "-78.0419281"
    },
    {
        "\ufeffRow Labels": "Alleghany County",
        "Average of housing_cost": "9125.991462",
        "Average of food_cost": "7870.507314",
        "Average of median_family_income": "52794.25977",
        "Average of total_tax_rate": "13.75774458",
        "latitude": "36.5029951",
        "longitude": "-81.1340843"
    },
    {
        "\ufeffRow Labels": "Allegheny County",
        "Average of housing_cost": "12852.75679",
        "Average of food_cost": "8622.637596",
        "Average of median_family_income": "87770.00781",
        "Average of total_tax_rate": "9.41401241",
        "latitude": "40.4597204",
        "longitude": "-79.9760405"
    },
    {
        "\ufeffRow Labels": "Allen County",
        "Average of housing_cost": "9427.880136",
        "Average of food_cost": "7857.076452",
        "Average of median_family_income": "63525.61914",
        "Average of total_tax_rate": "11.04100225",
        "latitude": "40.8077797",
        "longitude": "-84.0572225"
    },
    {
        "\ufeffRow Labels": "Allen Parish",
        "Average of housing_cost": "9484.8",
        "Average of food_cost": "7494.442356",
        "Average of median_family_income": "58885.39453",
        "Average of total_tax_rate": "10.59445454",
        "latitude": "30.6558242",
        "longitude": "-92.8598049"
    },
    {
        "\ufeffRow Labels": "Allendale County",
        "Average of housing_cost": "8893.2",
        "Average of food_cost": "7870.507632",
        "Average of median_family_income": "49944.82031",
        "Average of total_tax_rate": "7.447832261",
        "latitude": "32.9635006",
        "longitude": "-81.3400056"
    },
    {
        "\ufeffRow Labels": "Alpena County",
        "Average of housing_cost": "9831.6",
        "Average of food_cost": "8165.987184",
        "Average of median_family_income": "57685.03516",
        "Average of total_tax_rate": "11.291492",
        "latitude": "45.0176181",
        "longitude": "-83.6670019"
    },
    {
        "\ufeffRow Labels": "Alpine County",
        "Average of housing_cost": "14311.2",
        "Average of food_cost": "9912.004908",
        "Average of median_family_income": "97334.89063",
        "Average of total_tax_rate": "10.70579797",
        "latitude": "38.5893934",
        "longitude": "-119.8345013"
    },
    {
        "\ufeffRow Labels": "Amador County",
        "Average of housing_cost": "15525.6",
        "Average of food_cost": "11281.95517",
        "Average of median_family_income": "79965.10156",
        "Average of total_tax_rate": "13.50581782",
        "latitude": "38.449089",
        "longitude": "-120.5911018"
    },
    {
        "\ufeffRow Labels": "Amelia County",
        "Average of housing_cost": "11404.50359",
        "Average of food_cost": "8595.775872",
        "Average of median_family_income": "84043.65625",
        "Average of total_tax_rate": "11.3433044",
        "latitude": "37.3319664",
        "longitude": "-78.008448"
    },
    {
        "\ufeffRow Labels": "Amherst County",
        "Average of housing_cost": "9219.310368",
        "Average of food_cost": "7924.231272",
        "Average of median_family_income": "72444.63281",
        "Average of total_tax_rate": "10.93897986",
        "latitude": "37.5997548",
        "longitude": "-79.1483701"
    },
    {
        "\ufeffRow Labels": "Amite County",
        "Average of housing_cost": "8677.2",
        "Average of food_cost": "8461.46742",
        "Average of median_family_income": "47401.37109",
        "Average of total_tax_rate": "11.97898967",
        "latitude": "31.1729865",
        "longitude": "-90.8217568"
    },
    {
        "\ufeffRow Labels": "Anchorage Municipality",
        "Average of housing_cost": "16400.4",
        "Average of food_cost": "8214.818772",
        "Average of median_family_income": "104803",
        "Average of total_tax_rate": "9.83724759",
        "latitude": "61.1758781",
        "longitude": "-149.1107333"
    },
    {
        "\ufeffRow Labels": "Anderson County",
        "Average of housing_cost": "10097.56888",
        "Average of food_cost": "8010.188556",
        "Average of median_family_income": "63514.11953",
        "Average of total_tax_rate": "9.055716185",
        "latitude": "31.7819242",
        "longitude": "-95.6258199"
    },
    {
        "\ufeffRow Labels": "Andrew County",
        "Average of housing_cost": "11036.28104",
        "Average of food_cost": "7682.474496",
        "Average of median_family_income": "75624.71094",
        "Average of total_tax_rate": "12.11066301",
        "latitude": "39.9845508",
        "longitude": "-94.8090258"
    },
    {
        "\ufeffRow Labels": "Andrews County",
        "Average of housing_cost": "13219.2",
        "Average of food_cost": "7897.369332",
        "Average of median_family_income": "86046.99219",
        "Average of total_tax_rate": "6.310694752",
        "latitude": "32.2690953",
        "longitude": "-102.6042447"
    },
    {
        "\ufeffRow Labels": "Androscoggin County",
        "Average of housing_cost": "12079.2",
        "Average of food_cost": "9858.280644",
        "Average of median_family_income": "69864.21875",
        "Average of total_tax_rate": "11.22080733",
        "latitude": "44.1402839",
        "longitude": "-70.196395"
    },
    {
        "\ufeffRow Labels": "Angelina County",
        "Average of housing_cost": "11241.6",
        "Average of food_cost": "7548.16578",
        "Average of median_family_income": "59067.14063",
        "Average of total_tax_rate": "7.422555115",
        "latitude": "31.2544545",
        "longitude": "-94.6181177"
    },
    {
        "\ufeffRow Labels": "Anne Arundel County",
        "Average of housing_cost": "22427.2032",
        "Average of food_cost": "9240.45894",
        "Average of median_family_income": "119051.2422",
        "Average of total_tax_rate": "11.40210676",
        "latitude": "38.9722583",
        "longitude": "-76.573454"
    },
    {
        "\ufeffRow Labels": "Anoka County",
        "Average of housing_cost": "17648.47477",
        "Average of food_cost": "8300.295804",
        "Average of median_family_income": "97988.98438",
        "Average of total_tax_rate": "13.68931547",
        "latitude": "45.2710195",
        "longitude": "-93.2827625"
    },
    {
        "\ufeffRow Labels": "Anson County",
        "Average of housing_cost": "8850",
        "Average of food_cost": "7521.303768",
        "Average of median_family_income": "52531.39453",
        "Average of total_tax_rate": "11.56507959",
        "latitude": "34.9705848",
        "longitude": "-80.0958187"
    },
    {
        "\ufeffRow Labels": "Antelope County",
        "Average of housing_cost": "9241.2",
        "Average of food_cost": "8112.263376",
        "Average of median_family_income": "65682.98438",
        "Average of total_tax_rate": "14.23498951",
        "latitude": "42.1864809",
        "longitude": "-98.0716943"
    },
    {
        "\ufeffRow Labels": "Antrim County",
        "Average of housing_cost": "9732",
        "Average of food_cost": "9374.768124",
        "Average of median_family_income": "68512.91406",
        "Average of total_tax_rate": "10.50266036",
        "latitude": "44.9947369",
        "longitude": "-85.1133189"
    },
    {
        "\ufeffRow Labels": "Apache County",
        "Average of housing_cost": "10044",
        "Average of food_cost": "8649.49956",
        "Average of median_family_income": "42365.81641",
        "Average of total_tax_rate": "17.35493758",
        "latitude": "35.214632",
        "longitude": "-109.4786676"
    },
    {
        "\ufeffRow Labels": "Appanoose County",
        "Average of housing_cost": "9141.6",
        "Average of food_cost": "6903.48246",
        "Average of median_family_income": "54523.4375",
        "Average of total_tax_rate": "11.49664111",
        "latitude": "40.7455904",
        "longitude": "-92.8649061"
    },
    {
        "\ufeffRow Labels": "Appling County",
        "Average of housing_cost": "8780.4",
        "Average of food_cost": "7736.19858",
        "Average of median_family_income": "51470.68359",
        "Average of total_tax_rate": "10.67089926",
        "latitude": "31.7771435",
        "longitude": "-82.2996274"
    },
    {
        "\ufeffRow Labels": "Appomattox County",
        "Average of housing_cost": "8750.746584",
        "Average of food_cost": "8112.263376",
        "Average of median_family_income": "70459.77344",
        "Average of total_tax_rate": "11.27458761",
        "latitude": "37.379893",
        "longitude": "-78.79440517199774"
    },
    {
        "\ufeffRow Labels": "Aransas County",
        "Average of housing_cost": "12328.8",
        "Average of food_cost": "7951.092792",
        "Average of median_family_income": "59862.92969",
        "Average of total_tax_rate": "8.73261739",
        "latitude": "28.1987876",
        "longitude": "-96.947708"
    },
    {
        "\ufeffRow Labels": "Arapahoe County",
        "Average of housing_cost": "21358.39788",
        "Average of food_cost": "9159.873792",
        "Average of median_family_income": "96874.875",
        "Average of total_tax_rate": "14.29913819",
        "latitude": "39.6416781",
        "longitude": "-104.3628567"
    },
    {
        "\ufeffRow Labels": "Archer County",
        "Average of housing_cost": "8820.925236",
        "Average of food_cost": "7763.060736",
        "Average of median_family_income": "85916.58594",
        "Average of total_tax_rate": "5.639903852",
        "latitude": "33.5816594",
        "longitude": "-98.7044869"
    },
    {
        "\ufeffRow Labels": "Archuleta County",
        "Average of housing_cost": "13131.6",
        "Average of food_cost": "8864.39334",
        "Average of median_family_income": "63746.38672",
        "Average of total_tax_rate": "13.0134876",
        "latitude": "37.1995993",
        "longitude": "-107.0842479"
    },
    {
        "\ufeffRow Labels": "Arenac County",
        "Average of housing_cost": "9553.2",
        "Average of food_cost": "7655.612448",
        "Average of median_family_income": "54604.55469",
        "Average of total_tax_rate": "11.9150152",
        "latitude": "44.0608193",
        "longitude": "-83.8718694"
    },
    {
        "\ufeffRow Labels": "Arkansas County",
        "Average of housing_cost": "8748",
        "Average of food_cost": "8139.124812",
        "Average of median_family_income": "58720.07422",
        "Average of total_tax_rate": "9.553540609",
        "latitude": "34.2902454",
        "longitude": "-91.3598511"
    },
    {
        "\ufeffRow Labels": "Arlington County",
        "Average of housing_cost": "26960.47212",
        "Average of food_cost": "11765.46882",
        "Average of median_family_income": "165123.8906",
        "Average of total_tax_rate": "11.46759152",
        "latitude": "38.8769326",
        "longitude": "-77.0893094"
    },
    {
        "\ufeffRow Labels": "Armstrong County",
        "Average of housing_cost": "11595.78359",
        "Average of food_cost": "7789.921806",
        "Average of median_family_income": "74031.59375",
        "Average of total_tax_rate": "9.246832331",
        "latitude": "34.9295608",
        "longitude": "-101.3449139"
    },
    {
        "\ufeffRow Labels": "Aroostook County",
        "Average of housing_cost": "9601.2",
        "Average of food_cost": "9589.662324",
        "Average of median_family_income": "57900.66797",
        "Average of total_tax_rate": "12.76100242",
        "latitude": "46.6847962",
        "longitude": "-68.4701132"
    },
    {
        "\ufeffRow Labels": "Arthur County",
        "Average of housing_cost": "9390",
        "Average of food_cost": "8300.295804",
        "Average of median_family_income": "69470.94531",
        "Average of total_tax_rate": "14.50693404",
        "latitude": "41.5721288",
        "longitude": "-101.6974898"
    },
    {
        "\ufeffRow Labels": "Ascension Parish",
        "Average of housing_cost": "13827.97025",
        "Average of food_cost": "9079.288692",
        "Average of median_family_income": "95380.84375",
        "Average of total_tax_rate": "9.764513437",
        "latitude": "30.2116442",
        "longitude": "-90.9186104"
    },
    {
        "\ufeffRow Labels": "Ashe County",
        "Average of housing_cost": "9228",
        "Average of food_cost": "7682.474496",
        "Average of median_family_income": "55303.82422",
        "Average of total_tax_rate": "13.13701005",
        "latitude": "36.4393554",
        "longitude": "-81.5076569"
    },
    {
        "\ufeffRow Labels": "Ashland County",
        "Average of housing_cost": "9295.2",
        "Average of food_cost": "8152.556244",
        "Average of median_family_income": "63868.06445",
        "Average of total_tax_rate": "10.64700276",
        "latitude": "40.7887367",
        "longitude": "-82.2360391"
    },
    {
        "\ufeffRow Labels": "Ashley County",
        "Average of housing_cost": "8546.4",
        "Average of food_cost": "7924.231272",
        "Average of median_family_income": "57424.21875",
        "Average of total_tax_rate": "9.578241494",
        "latitude": "33.1742582",
        "longitude": "-91.7295595"
    },
    {
        "\ufeffRow Labels": "Ashtabula County",
        "Average of housing_cost": "9506.4",
        "Average of food_cost": "7628.75094",
        "Average of median_family_income": "59115.40234",
        "Average of total_tax_rate": "8.693712806",
        "latitude": "41.7167229",
        "longitude": "-80.74947"
    },
    {
        "\ufeffRow Labels": "Asotin County",
        "Average of housing_cost": "12252.63494",
        "Average of food_cost": "8165.987184",
        "Average of median_family_income": "69590.05469",
        "Average of total_tax_rate": "8.127456731",
        "latitude": "46.1678079",
        "longitude": "-117.2045179"
    },
    {
        "\ufeffRow Labels": "Assumption Parish",
        "Average of housing_cost": "10494",
        "Average of food_cost": "7951.092792",
        "Average of median_family_income": "61636.26172",
        "Average of total_tax_rate": "11.10272133",
        "latitude": "29.9185432",
        "longitude": "-91.0533996"
    },
    {
        "\ufeffRow Labels": "Atascosa County",
        "Average of housing_cost": "11140.8",
        "Average of food_cost": "7064.65386",
        "Average of median_family_income": "62603.53125",
        "Average of total_tax_rate": "7.576292936",
        "latitude": "28.8554434",
        "longitude": "-98.5316314"
    },
    {
        "\ufeffRow Labels": "Atchison County",
        "Average of housing_cost": "8658.6",
        "Average of food_cost": "8448.03639",
        "Average of median_family_income": "64941.61523",
        "Average of total_tax_rate": "10.28938221",
        "latitude": "40.4144817",
        "longitude": "-95.4359392"
    },
    {
        "\ufeffRow Labels": "Athens County",
        "Average of housing_cost": "10820.4",
        "Average of food_cost": "7682.474496",
        "Average of median_family_income": "64532.9375",
        "Average of total_tax_rate": "9.04279325",
        "latitude": "39.355589",
        "longitude": "-82.0610404"
    },
    {
        "\ufeffRow Labels": "Atkinson County",
        "Average of housing_cost": "8592",
        "Average of food_cost": "7628.75094",
        "Average of median_family_income": "47158.01172",
        "Average of total_tax_rate": "11.65815105",
        "latitude": "31.3030105",
        "longitude": "-82.8839362"
    },
    {
        "\ufeffRow Labels": "Atlantic County",
        "Average of housing_cost": "18392.4",
        "Average of food_cost": "9267.320784",
        "Average of median_family_income": "80943.67188",
        "Average of total_tax_rate": "14.0862758",
        "latitude": "39.5143268",
        "longitude": "-74.6632883"
    },
    {
        "\ufeffRow Labels": "Atoka County",
        "Average of housing_cost": "9644.4",
        "Average of food_cost": "8058.540012",
        "Average of median_family_income": "48132.47266",
        "Average of total_tax_rate": "15.94180947",
        "latitude": "34.3284948",
        "longitude": "-96.017838"
    },
    {
        "\ufeffRow Labels": "Attala County",
        "Average of housing_cost": "9019.2",
        "Average of food_cost": "8515.19076",
        "Average of median_family_income": "47172.38672",
        "Average of total_tax_rate": "11.95591361",
        "latitude": "33.0777868",
        "longitude": "-89.5680661"
    },
    {
        "\ufeffRow Labels": "Audrain County",
        "Average of housing_cost": "8551.2",
        "Average of food_cost": "7064.65386",
        "Average of median_family_income": "55012.20703",
        "Average of total_tax_rate": "12.0110438",
        "latitude": "39.2226625",
        "longitude": "-91.8467268"
    },
    {
        "\ufeffRow Labels": "Audubon County",
        "Average of housing_cost": "8973.6",
        "Average of food_cost": "7951.092792",
        "Average of median_family_income": "63626.25",
        "Average of total_tax_rate": "11.13278659",
        "latitude": "41.670205",
        "longitude": "-94.9106526"
    },
    {
        "\ufeffRow Labels": "Auglaize County",
        "Average of housing_cost": "9837.6",
        "Average of food_cost": "7440.718824",
        "Average of median_family_income": "81172.65625",
        "Average of total_tax_rate": "6.709396897",
        "latitude": "40.5942186",
        "longitude": "-84.2641951"
    },
    {
        "\ufeffRow Labels": "Augusta County",
        "Average of housing_cost": "12366.84605",
        "Average of food_cost": "8783.808204",
        "Average of median_family_income": "75494.30469",
        "Average of total_tax_rate": "13.4211821",
        "latitude": "38.1793809",
        "longitude": "-79.1525761"
    },
    {
        "\ufeffRow Labels": "Aurora County",
        "Average of housing_cost": "9050.4",
        "Average of food_cost": "8810.670456",
        "Average of median_family_income": "75728.42188",
        "Average of total_tax_rate": "7.260711437",
        "latitude": "43.6963371",
        "longitude": "-98.5722461"
    },
    {
        "\ufeffRow Labels": "Austin County",
        "Average of housing_cost": "12302.4",
        "Average of food_cost": "8058.540012",
        "Average of median_family_income": "80292.66406",
        "Average of total_tax_rate": "7.135091295",
        "latitude": "29.8916488",
        "longitude": "-96.2443467"
    },
    {
        "\ufeffRow Labels": "Autauga County",
        "Average of housing_cost": "12798.46342",
        "Average of food_cost": "8944.979604",
        "Average of median_family_income": "73010.41406",
        "Average of total_tax_rate": "14.4702999",
        "latitude": "32.5165255",
        "longitude": "-86.6319403"
    },
    {
        "\ufeffRow Labels": "Avery County",
        "Average of housing_cost": "10020",
        "Average of food_cost": "8085.401268",
        "Average of median_family_income": "50981.91406",
        "Average of total_tax_rate": "15.15167365",
        "latitude": "36.0771285",
        "longitude": "-81.9230523"
    },
    {
        "\ufeffRow Labels": "Avoyelles Parish",
        "Average of housing_cost": "9384",
        "Average of food_cost": "8219.710764",
        "Average of median_family_income": "50716.99219",
        "Average of total_tax_rate": "12.72663862",
        "latitude": "31.0471604",
        "longitude": "-92.0019698"
    },
    {
        "\ufeffRow Labels": "Baca County",
        "Average of housing_cost": "10056",
        "Average of food_cost": "7360.13298",
        "Average of median_family_income": "49474.53125",
        "Average of total_tax_rate": "13.26130765",
        "latitude": "37.3147687",
        "longitude": "-102.5770885"
    },
    {
        "\ufeffRow Labels": "Bacon County",
        "Average of housing_cost": "8427.6",
        "Average of food_cost": "7548.16578",
        "Average of median_family_income": "46991.66797",
        "Average of total_tax_rate": "11.80644108",
        "latitude": "31.5555512",
        "longitude": "-82.4442559"
    },
    {
        "\ufeffRow Labels": "Bailey County",
        "Average of housing_cost": "9907.2",
        "Average of food_cost": "8085.401268",
        "Average of median_family_income": "64194.08203",
        "Average of total_tax_rate": "6.722450574",
        "latitude": "34.0349194",
        "longitude": "-102.8149372"
    },
    {
        "\ufeffRow Labels": "Baker County",
        "Average of housing_cost": "9238.341784",
        "Average of food_cost": "8327.157912",
        "Average of median_family_income": "62591.89193",
        "Average of total_tax_rate": "11.66321395",
        "latitude": "30.3143459",
        "longitude": "-82.2847163"
    },
    {
        "\ufeffRow Labels": "Baldwin County",
        "Average of housing_cost": "10619.4",
        "Average of food_cost": "8595.775728",
        "Average of median_family_income": "71213.98047",
        "Average of total_tax_rate": "10.79245099",
        "latitude": "33.0869398",
        "longitude": "-83.2633216"
    },
    {
        "\ufeffRow Labels": "Ballard County",
        "Average of housing_cost": "8713.2",
        "Average of food_cost": "7252.685964",
        "Average of median_family_income": "58468.5",
        "Average of total_tax_rate": "13.38525791",
        "latitude": "37.0231521",
        "longitude": "-88.9888619"
    },
    {
        "\ufeffRow Labels": "Baltimore city",
        "Average of housing_cost": "14470.46821",
        "Average of food_cost": "9428.492124",
        "Average of median_family_income": "64801.96484",
        "Average of total_tax_rate": "12.11913969",
        "latitude": "39.3119423",
        "longitude": "-76.61322826007017"
    },
    {
        "\ufeffRow Labels": "Baltimore County",
        "Average of housing_cost": "17558.76012",
        "Average of food_cost": "8542.052448",
        "Average of median_family_income": "97940.71875",
        "Average of total_tax_rate": "10.25572753",
        "latitude": "39.4445243",
        "longitude": "-76.6483482"
    },
    {
        "\ufeffRow Labels": "Bamberg County",
        "Average of housing_cost": "9648",
        "Average of food_cost": "7897.369332",
        "Average of median_family_income": "53411.38281",
        "Average of total_tax_rate": "8.108876782",
        "latitude": "33.2130154",
        "longitude": "-81.0166235"
    },
    {
        "\ufeffRow Labels": "Bandera County",
        "Average of housing_cost": "12517.6176",
        "Average of food_cost": "8434.60536",
        "Average of median_family_income": "69019.14063",
        "Average of total_tax_rate": "8.675022137",
        "latitude": "29.7643475",
        "longitude": "-99.234526"
    },
    {
        "\ufeffRow Labels": "Banks County",
        "Average of housing_cost": "8786.4",
        "Average of food_cost": "8273.434152",
        "Average of median_family_income": "57068.9375",
        "Average of total_tax_rate": "10.53442392",
        "latitude": "34.3378598",
        "longitude": "-83.4970026"
    },
    {
        "\ufeffRow Labels": "Banner County",
        "Average of housing_cost": "9361.2",
        "Average of food_cost": "8407.743948",
        "Average of median_family_income": "60807.61328",
        "Average of total_tax_rate": "16.66879448",
        "latitude": "41.5584661",
        "longitude": "-103.7433155"
    },
    {
        "\ufeffRow Labels": "Bannock County",
        "Average of housing_cost": "10441.2",
        "Average of food_cost": "8434.60536",
        "Average of median_family_income": "66481.85156",
        "Average of total_tax_rate": "10.41744567",
        "latitude": "42.6936188",
        "longitude": "-112.2506044"
    },
    {
        "\ufeffRow Labels": "Baraga County",
        "Average of housing_cost": "9214.8",
        "Average of food_cost": "8837.532324",
        "Average of median_family_income": "58696.45703",
        "Average of total_tax_rate": "13.55233556",
        "latitude": "46.6354348",
        "longitude": "-88.3876368"
    },
    {
        "\ufeffRow Labels": "Barber County",
        "Average of housing_cost": "9100.8",
        "Average of food_cost": "8461.46742",
        "Average of median_family_income": "63826.48047",
        "Average of total_tax_rate": "10.67344304",
        "latitude": "37.2113342",
        "longitude": "-98.7033263"
    },
    {
        "\ufeffRow Labels": "Barbour County",
        "Average of housing_cost": "8446.8",
        "Average of food_cost": "8018.246856",
        "Average of median_family_income": "48199.72852",
        "Average of total_tax_rate": "17.24040101",
        "latitude": "31.8589311",
        "longitude": "-85.4032078"
    },
    {
        "\ufeffRow Labels": "Barnes County",
        "Average of housing_cost": "9836.4",
        "Average of food_cost": "8837.532324",
        "Average of median_family_income": "88272.125",
        "Average of total_tax_rate": "5.885660127",
        "latitude": "46.9310489",
        "longitude": "-98.0678849"
    },
    {
        "\ufeffRow Labels": "Barnstable County",
        "Average of housing_cost": "20866.8",
        "Average of food_cost": "11792.32994",
        "Average of median_family_income": "95838.8125",
        "Average of total_tax_rate": "17.88874566",
        "latitude": "41.7016936",
        "longitude": "-70.3036163"
    },
    {
        "\ufeffRow Labels": "Barnwell County",
        "Average of housing_cost": "8942.4",
        "Average of food_cost": "7360.13298",
        "Average of median_family_income": "52139.14453",
        "Average of total_tax_rate": "6.886134662",
        "latitude": "33.2641009",
        "longitude": "-81.4190808"
    },
    {
        "\ufeffRow Labels": "Barren County",
        "Average of housing_cost": "9001.2",
        "Average of food_cost": "7172.100996",
        "Average of median_family_income": "49419.08203",
        "Average of total_tax_rate": "13.24366453",
        "latitude": "36.9584649",
        "longitude": "-85.925817"
    },
    {
        "\ufeffRow Labels": "Barron County",
        "Average of housing_cost": "9592.8",
        "Average of food_cost": "7736.19858",
        "Average of median_family_income": "68349.64844",
        "Average of total_tax_rate": "12.93963432",
        "latitude": "45.423557",
        "longitude": "-91.8454099"
    },
    {
        "\ufeffRow Labels": "Barrow County",
        "Average of housing_cost": "13082.90753",
        "Average of food_cost": "8300.295804",
        "Average of median_family_income": "72049.30469",
        "Average of total_tax_rate": "11.79885716",
        "latitude": "33.9848611",
        "longitude": "-83.6996482"
    },
    {
        "\ufeffRow Labels": "Barry County",
        "Average of housing_cost": "9850.2",
        "Average of food_cost": "7507.873098",
        "Average of median_family_income": "66324.74609",
        "Average of total_tax_rate": "9.958147118",
        "latitude": "36.7033624",
        "longitude": "-93.8229669"
    },
    {
        "\ufeffRow Labels": "Bartholomew County",
        "Average of housing_cost": "11822.4",
        "Average of food_cost": "7628.75094",
        "Average of median_family_income": "79837.78125",
        "Average of total_tax_rate": "11.01225755",
        "latitude": "39.1914156",
        "longitude": "-85.8204601"
    },
    {
        "\ufeffRow Labels": "Barton County",
        "Average of housing_cost": "8940",
        "Average of food_cost": "7628.75148",
        "Average of median_family_income": "65373.39258",
        "Average of total_tax_rate": "9.471049313",
        "latitude": "37.5040024",
        "longitude": "-94.3620755"
    },
    {
        "\ufeffRow Labels": "Bartow County",
        "Average of housing_cost": "12332.68042",
        "Average of food_cost": "7843.645656",
        "Average of median_family_income": "67339.25",
        "Average of total_tax_rate": "12.0189343",
        "latitude": "34.2394683",
        "longitude": "-84.8406984"
    },
    {
        "\ufeffRow Labels": "Bastrop County",
        "Average of housing_cost": "15331.72535",
        "Average of food_cost": "8219.710764",
        "Average of median_family_income": "78419.73438",
        "Average of total_tax_rate": "9.350826027",
        "latitude": "30.0541116",
        "longitude": "-97.3887764"
    },
    {
        "\ufeffRow Labels": "Bates County",
        "Average of housing_cost": "9108",
        "Average of food_cost": "7870.507632",
        "Average of median_family_income": "64823.52734",
        "Average of total_tax_rate": "11.88360264",
        "latitude": "38.2612027",
        "longitude": "-94.3503613"
    },
    {
        "\ufeffRow Labels": "Bath County",
        "Average of housing_cost": "8815.8",
        "Average of food_cost": "7830.214518",
        "Average of median_family_income": "60776.80859",
        "Average of total_tax_rate": "11.4323202",
        "latitude": "38.1245248",
        "longitude": "-83.7249243"
    },
    {
        "\ufeffRow Labels": "Baxter County",
        "Average of housing_cost": "9046.8",
        "Average of food_cost": "8568.9141",
        "Average of median_family_income": "52002.57813",
        "Average of total_tax_rate": "11.44118149",
        "latitude": "36.2820691",
        "longitude": "-92.3445222"
    },
    {
        "\ufeffRow Labels": "Bay County",
        "Average of housing_cost": "12291",
        "Average of food_cost": "8354.019648",
        "Average of median_family_income": "66065.98633",
        "Average of total_tax_rate": "9.989912618",
        "latitude": "30.2481693",
        "longitude": "-85.6593633"
    },
    {
        "\ufeffRow Labels": "Bayfield County",
        "Average of housing_cost": "9439.2",
        "Average of food_cost": "8354.01942",
        "Average of median_family_income": "68050.84375",
        "Average of total_tax_rate": "12.36114423",
        "latitude": "46.4710241",
        "longitude": "-91.1983175"
    },
    {
        "\ufeffRow Labels": "Baylor County",
        "Average of housing_cost": "9981.6",
        "Average of food_cost": "7709.335992",
        "Average of median_family_income": "59775.65234",
        "Average of total_tax_rate": "7.17497567",
        "latitude": "33.574962",
        "longitude": "-99.2000611"
    },
    {
        "\ufeffRow Labels": "Beadle County",
        "Average of housing_cost": "9706.8",
        "Average of food_cost": "8488.32912",
        "Average of median_family_income": "67270.45313",
        "Average of total_tax_rate": "7.781272165",
        "latitude": "44.4157764",
        "longitude": "-98.2751583"
    },
    {
        "\ufeffRow Labels": "Bear Lake County",
        "Average of housing_cost": "9895.2",
        "Average of food_cost": "8031.678264",
        "Average of median_family_income": "68784",
        "Average of total_tax_rate": "9.903526326",
        "latitude": "42.2172123",
        "longitude": "-111.3198808"
    },
    {
        "\ufeffRow Labels": "Beaufort County",
        "Average of housing_cost": "12545.4",
        "Average of food_cost": "8891.255814",
        "Average of median_family_income": "71356.19531",
        "Average of total_tax_rate": "12.13207767",
        "latitude": "35.469331",
        "longitude": "-76.8927522"
    },
    {
        "\ufeffRow Labels": "Beauregard Parish",
        "Average of housing_cost": "9806.4",
        "Average of food_cost": "8461.46742",
        "Average of median_family_income": "66995.26563",
        "Average of total_tax_rate": "10.44285178",
        "latitude": "30.6144496",
        "longitude": "-93.3416829"
    },
    {
        "\ufeffRow Labels": "Beaver County",
        "Average of housing_cost": "9626.809028",
        "Average of food_cost": "8031.678264",
        "Average of median_family_income": "67884.15495",
        "Average of total_tax_rate": "11.54029854",
        "latitude": "40.6916624",
        "longitude": "-80.3709999"
    },
    {
        "\ufeffRow Labels": "Beaverhead County",
        "Average of housing_cost": "9562.8",
        "Average of food_cost": "9025.56438",
        "Average of median_family_income": "72938.53125",
        "Average of total_tax_rate": "11.71559135",
        "latitude": "45.1708403",
        "longitude": "-112.9537553"
    },
    {
        "\ufeffRow Labels": "Becker County",
        "Average of housing_cost": "9542.4",
        "Average of food_cost": "8810.670456",
        "Average of median_family_income": "73830.84375",
        "Average of total_tax_rate": "8.729424951",
        "latitude": "46.9298236",
        "longitude": "-95.6761851"
    },
    {
        "\ufeffRow Labels": "Beckham County",
        "Average of housing_cost": "10471.2",
        "Average of food_cost": "8542.052448",
        "Average of median_family_income": "61798.5",
        "Average of total_tax_rate": "13.20837541",
        "latitude": "35.2496723",
        "longitude": "-99.6946079"
    },
    {
        "\ufeffRow Labels": "Bedford County",
        "Average of housing_cost": "10062.40802",
        "Average of food_cost": "8721.130828",
        "Average of median_family_income": "66910.03776",
        "Average of total_tax_rate": "9.84564089",
        "latitude": "40.0271453",
        "longitude": "-78.5237447"
    },
    {
        "\ufeffRow Labels": "Bee County",
        "Average of housing_cost": "12358.8",
        "Average of food_cost": "7951.092792",
        "Average of median_family_income": "51292.01563",
        "Average of total_tax_rate": "9.594295978",
        "latitude": "28.3871179",
        "longitude": "-97.7191838"
    },
    {
        "\ufeffRow Labels": "Belknap County",
        "Average of housing_cost": "13816.8",
        "Average of food_cost": "10046.31253",
        "Average of median_family_income": "87885.01563",
        "Average of total_tax_rate": "7.251112744",
        "latitude": "43.5218848",
        "longitude": "-71.4530581"
    },
    {
        "\ufeffRow Labels": "Bell County",
        "Average of housing_cost": "9898.195812",
        "Average of food_cost": "7266.116724",
        "Average of median_family_income": "49745.10156",
        "Average of total_tax_rate": "12.55578974",
        "latitude": "31.0081659",
        "longitude": "-97.4314413"
    },
    {
        "\ufeffRow Labels": "Belmont County",
        "Average of housing_cost": "9268.47102",
        "Average of food_cost": "7440.718824",
        "Average of median_family_income": "67819.80469",
        "Average of total_tax_rate": "8.316638637",
        "latitude": "40.0057737",
        "longitude": "-81.0097516"
    },
    {
        "\ufeffRow Labels": "Beltrami County",
        "Average of housing_cost": "10143.6",
        "Average of food_cost": "8273.434152",
        "Average of median_family_income": "64250.55859",
        "Average of total_tax_rate": "9.376611983",
        "latitude": "47.9978537",
        "longitude": "-94.8799011"
    },
    {
        "\ufeffRow Labels": "Ben Hill County",
        "Average of housing_cost": "8552.4",
        "Average of food_cost": "7951.092792",
        "Average of median_family_income": "41122.32813",
        "Average of total_tax_rate": "13.30286481",
        "latitude": "31.7462726",
        "longitude": "-83.2355879"
    },
    {
        "\ufeffRow Labels": "Benewah County",
        "Average of housing_cost": "11047.2",
        "Average of food_cost": "9052.426344",
        "Average of median_family_income": "54157.88672",
        "Average of total_tax_rate": "13.34276913",
        "latitude": "47.2162961",
        "longitude": "-116.6654616"
    },
    {
        "\ufeffRow Labels": "Bennett County",
        "Average of housing_cost": "9084",
        "Average of food_cost": "8837.532324",
        "Average of median_family_income": "52074.45703",
        "Average of total_tax_rate": "11.96226388",
        "latitude": "43.1854085",
        "longitude": "-101.655263"
    },
    {
        "\ufeffRow Labels": "Bennington County",
        "Average of housing_cost": "12442.8",
        "Average of food_cost": "8837.532324",
        "Average of median_family_income": "76159.6875",
        "Average of total_tax_rate": "10.91884249",
        "latitude": "43.0125713",
        "longitude": "-73.1473048"
    },
    {
        "\ufeffRow Labels": "Benson County",
        "Average of housing_cost": "9433.2",
        "Average of food_cost": "8542.052448",
        "Average of median_family_income": "56436.41406",
        "Average of total_tax_rate": "9.106085114",
        "latitude": "48.0191362",
        "longitude": "-99.403103"
    },
    {
        "\ufeffRow Labels": "Bent County",
        "Average of housing_cost": "10088.4",
        "Average of food_cost": "8192.84868",
        "Average of median_family_income": "41665.51953",
        "Average of total_tax_rate": "16.0539704",
        "latitude": "37.9421152",
        "longitude": "-103.0964287"
    },
    {
        "\ufeffRow Labels": "Benton County",
        "Average of housing_cost": "10806.80985",
        "Average of food_cost": "8470.420945",
        "Average of median_family_income": "68877.09549",
        "Average of total_tax_rate": "11.41148652",
        "latitude": "45.7162129",
        "longitude": "-94.0481042"
    },
    {
        "\ufeffRow Labels": "Benzie County",
        "Average of housing_cost": "10838.4",
        "Average of food_cost": "8058.540012",
        "Average of median_family_income": "73104.88281",
        "Average of total_tax_rate": "9.887715887",
        "latitude": "44.6408868",
        "longitude": "-85.9928452"
    },
    {
        "\ufeffRow Labels": "Bergen County",
        "Average of housing_cost": "23861.01264",
        "Average of food_cost": "10637.27225",
        "Average of median_family_income": "126280.0938",
        "Average of total_tax_rate": "11.84291394",
        "latitude": "40.9678345",
        "longitude": "-74.0563254"
    },
    {
        "\ufeffRow Labels": "Berkeley County",
        "Average of housing_cost": "13485.61409",
        "Average of food_cost": "8313.726966",
        "Average of median_family_income": "74578.375",
        "Average of total_tax_rate": "14.00243658",
        "latitude": "39.4535243",
        "longitude": "-78.0395522"
    },
    {
        "\ufeffRow Labels": "Berks County",
        "Average of housing_cost": "11895.6",
        "Average of food_cost": "8542.052448",
        "Average of median_family_income": "79812.10938",
        "Average of total_tax_rate": "11.69797381",
        "latitude": "40.4113762",
        "longitude": "-75.9433305"
    },
    {
        "\ufeffRow Labels": "Berkshire County",
        "Average of housing_cost": "14609.57945",
        "Average of food_cost": "9885.142404",
        "Average of median_family_income": "81352.34375",
        "Average of total_tax_rate": "14.65924279",
        "latitude": "42.3999954",
        "longitude": "-73.2322639"
    },
    {
        "\ufeffRow Labels": "Bernalillo County",
        "Average of housing_cost": "12288.54895",
        "Average of food_cost": "8327.157636",
        "Average of median_family_income": "69691.71094",
        "Average of total_tax_rate": "9.558161501",
        "latitude": "35.0349239",
        "longitude": "-106.6870693"
    },
    {
        "\ufeffRow Labels": "Berrien County",
        "Average of housing_cost": "9519",
        "Average of food_cost": "8098.832508",
        "Average of median_family_income": "58880.25977",
        "Average of total_tax_rate": "11.47726989",
        "latitude": "31.2561376",
        "longitude": "-83.2443709"
    },
    {
        "\ufeffRow Labels": "Bertie County",
        "Average of housing_cost": "8840.4",
        "Average of food_cost": "7763.060736",
        "Average of median_family_income": "52489.29297",
        "Average of total_tax_rate": "13.74204383",
        "latitude": "36.0608505",
        "longitude": "-76.9747965"
    },
    {
        "\ufeffRow Labels": "Bethel Census Area",
        "Average of housing_cost": "20449.2",
        "Average of food_cost": "9007.670412",
        "Average of median_family_income": "55433.20313",
        "Average of total_tax_rate": "19.90627144",
        "latitude": "60.392415",
        "longitude": "-162.31349066487257"
    },
    {
        "\ufeffRow Labels": "Bexar County",
        "Average of housing_cost": "14164.305",
        "Average of food_cost": "7360.13298",
        "Average of median_family_income": "69862.16406",
        "Average of total_tax_rate": "7.143076495",
        "latitude": "29.4263987",
        "longitude": "-98.5104781"
    },
    {
        "\ufeffRow Labels": "Bibb County",
        "Average of housing_cost": "10417.0456",
        "Average of food_cost": "7937.662176",
        "Average of median_family_income": "58634.33594",
        "Average of total_tax_rate": "13.09349981",
        "latitude": "32.8095879",
        "longitude": "-83.694562"
    },
    {
        "\ufeffRow Labels": "Bienville Parish",
        "Average of housing_cost": "9796.8",
        "Average of food_cost": "8354.01942",
        "Average of median_family_income": "45544.87109",
        "Average of total_tax_rate": "14.42989387",
        "latitude": "32.3231432",
        "longitude": "-93.0761115"
    },
    {
        "\ufeffRow Labels": "Big Horn County",
        "Average of housing_cost": "10157.4",
        "Average of food_cost": "8568.91416",
        "Average of median_family_income": "61403.16992",
        "Average of total_tax_rate": "14.00354834",
        "latitude": "45.4608548",
        "longitude": "-107.5152896"
    },
    {
        "\ufeffRow Labels": "Big Stone County",
        "Average of housing_cost": "9812.4",
        "Average of food_cost": "9186.735696",
        "Average of median_family_income": "72433.33594",
        "Average of total_tax_rate": "9.785515026",
        "latitude": "45.385266",
        "longitude": "-96.3557364"
    },
    {
        "\ufeffRow Labels": "Billings County",
        "Average of housing_cost": "10543.2",
        "Average of food_cost": "9643.386192",
        "Average of median_family_income": "94821.22656",
        "Average of total_tax_rate": "6.640670778",
        "latitude": "47.0456305",
        "longitude": "-103.3943708"
    },
    {
        "\ufeffRow Labels": "Bingham County",
        "Average of housing_cost": "10140",
        "Average of food_cost": "7843.645656",
        "Average of median_family_income": "66386.35938",
        "Average of total_tax_rate": "9.585926296",
        "latitude": "43.1881598",
        "longitude": "-112.3598354"
    },
    {
        "\ufeffRow Labels": "Black Hawk County",
        "Average of housing_cost": "10977.03972",
        "Average of food_cost": "7655.612448",
        "Average of median_family_income": "74342.20313",
        "Average of total_tax_rate": "11.06763102",
        "latitude": "42.4607526",
        "longitude": "-92.3030235"
    },
    {
        "\ufeffRow Labels": "Blackford County",
        "Average of housing_cost": "9411.6",
        "Average of food_cost": "7118.377248",
        "Average of median_family_income": "54691.83594",
        "Average of total_tax_rate": "10.98693309",
        "latitude": "40.4692826",
        "longitude": "-85.3305529"
    },
    {
        "\ufeffRow Labels": "Bladen County",
        "Average of housing_cost": "9230.4",
        "Average of food_cost": "8139.124812",
        "Average of median_family_income": "48299.84375",
        "Average of total_tax_rate": "14.97825678",
        "latitude": "34.627971",
        "longitude": "-78.5627714"
    },
    {
        "\ufeffRow Labels": "Blaine County",
        "Average of housing_cost": "10618.5",
        "Average of food_cost": "9663.53244",
        "Average of median_family_income": "58816.85352",
        "Average of total_tax_rate": "16.00337942",
        "latitude": "41.9195837",
        "longitude": "-99.979237"
    },
    {
        "\ufeffRow Labels": "Blair County",
        "Average of housing_cost": "10148.4",
        "Average of food_cost": "8246.572128",
        "Average of median_family_income": "66065.98438",
        "Average of total_tax_rate": "10.24658758",
        "latitude": "40.4870748",
        "longitude": "-78.3682329"
    },
    {
        "\ufeffRow Labels": "Blanco County",
        "Average of housing_cost": "11240.4",
        "Average of food_cost": "7897.369332",
        "Average of median_family_income": "72665.39844",
        "Average of total_tax_rate": "6.902905036",
        "latitude": "30.2419274",
        "longitude": "-98.4004594"
    },
    {
        "\ufeffRow Labels": "Bland County",
        "Average of housing_cost": "9158.4",
        "Average of food_cost": "7789.922172",
        "Average of median_family_income": "56451.81641",
        "Average of total_tax_rate": "12.79277927",
        "latitude": "37.1312101",
        "longitude": "-81.1154109"
    },
    {
        "\ufeffRow Labels": "Bleckley County",
        "Average of housing_cost": "8439.6",
        "Average of food_cost": "8219.710764",
        "Average of median_family_income": "57438.59375",
        "Average of total_tax_rate": "10.12750507",
        "latitude": "32.4305311",
        "longitude": "-83.3311795"
    },
    {
        "\ufeffRow Labels": "Bledsoe County",
        "Average of housing_cost": "9013.2",
        "Average of food_cost": "8944.979604",
        "Average of median_family_income": "54161.99219",
        "Average of total_tax_rate": "7.828741397",
        "latitude": "35.5943104",
        "longitude": "-85.2104415"
    },
    {
        "\ufeffRow Labels": "Blount County",
        "Average of housing_cost": "10195.73697",
        "Average of food_cost": "8622.637908",
        "Average of median_family_income": "68302.92773",
        "Average of total_tax_rate": "10.13811125",
        "latitude": "33.9510169",
        "longitude": "-86.5702002"
    },
    {
        "\ufeffRow Labels": "Blue Earth County",
        "Average of housing_cost": "12869.79326",
        "Average of food_cost": "8192.84868",
        "Average of median_family_income": "81290.73438",
        "Average of total_tax_rate": "13.46537758",
        "latitude": "44.0109722",
        "longitude": "-94.0560643"
    },
    {
        "\ufeffRow Labels": "Boise County",
        "Average of housing_cost": "10576.57062",
        "Average of food_cost": "8891.255376",
        "Average of median_family_income": "72583.25",
        "Average of total_tax_rate": "10.95573119",
        "latitude": "43.9873519",
        "longitude": "-115.7390188"
    },
    {
        "\ufeffRow Labels": "Bolivar County",
        "Average of housing_cost": "8872.8",
        "Average of food_cost": "8165.987184",
        "Average of median_family_income": "41026.83594",
        "Average of total_tax_rate": "12.68536205",
        "latitude": "33.7702263",
        "longitude": "-90.8519798"
    },
    {
        "\ufeffRow Labels": "Bollinger County",
        "Average of housing_cost": "8963.954256",
        "Average of food_cost": "7763.060736",
        "Average of median_family_income": "58146.07813",
        "Average of total_tax_rate": "14.18250159",
        "latitude": "37.3310468",
        "longitude": "-90.0296175"
    },
    {
        "\ufeffRow Labels": "Bon Homme County",
        "Average of housing_cost": "9452.4",
        "Average of food_cost": "8783.808204",
        "Average of median_family_income": "73161.35938",
        "Average of total_tax_rate": "7.716173554",
        "latitude": "43.0067408",
        "longitude": "-97.8721324"
    },
    {
        "\ufeffRow Labels": "Bond County",
        "Average of housing_cost": "9367.2",
        "Average of food_cost": "7763.060736",
        "Average of median_family_income": "78328.34375",
        "Average of total_tax_rate": "11.89986588",
        "latitude": "38.8630331",
        "longitude": "-89.4391416"
    },
    {
        "\ufeffRow Labels": "Bonner County",
        "Average of housing_cost": "11217.6",
        "Average of food_cost": "9186.735696",
        "Average of median_family_income": "67040.44531",
        "Average of total_tax_rate": "11.44862535",
        "latitude": "48.2663565",
        "longitude": "-116.5952716"
    },
    {
        "\ufeffRow Labels": "Bonneville County",
        "Average of housing_cost": "11003.52958",
        "Average of food_cost": "8004.816336",
        "Average of median_family_income": "73170.59375",
        "Average of total_tax_rate": "10.00529106",
        "latitude": "43.3993844",
        "longitude": "-111.4752257"
    },
    {
        "\ufeffRow Labels": "Boone County",
        "Average of housing_cost": "10840.10532",
        "Average of food_cost": "7813.426074",
        "Average of median_family_income": "77026.84277",
        "Average of total_tax_rate": "12.39553351",
        "latitude": "42.321246",
        "longitude": "-88.8235511"
    },
    {
        "\ufeffRow Labels": "Borden County",
        "Average of housing_cost": "10257.6",
        "Average of food_cost": "7843.645656",
        "Average of median_family_income": "98648.20313",
        "Average of total_tax_rate": "4.755473417",
        "latitude": "32.6879416",
        "longitude": "-101.425711"
    },
    {
        "\ufeffRow Labels": "Bosque County",
        "Average of housing_cost": "9219.6",
        "Average of food_cost": "7145.23896",
        "Average of median_family_income": "62864.34375",
        "Average of total_tax_rate": "6.018145611",
        "latitude": "31.8778358",
        "longitude": "-97.6561014"
    },
    {
        "\ufeffRow Labels": "Bossier Parish",
        "Average of housing_cost": "12522.26868",
        "Average of food_cost": "8434.60536",
        "Average of median_family_income": "69842.65625",
        "Average of total_tax_rate": "10.70522961",
        "latitude": "32.6676663",
        "longitude": "-93.5959786"
    },
    {
        "\ufeffRow Labels": "Botetourt County",
        "Average of housing_cost": "12939.79498",
        "Average of food_cost": "9052.426344",
        "Average of median_family_income": "88140.69531",
        "Average of total_tax_rate": "12.36362795",
        "latitude": "37.5520825",
        "longitude": "-79.8029569"
    },
    {
        "\ufeffRow Labels": "Bottineau County",
        "Average of housing_cost": "9237.6",
        "Average of food_cost": "8676.360984",
        "Average of median_family_income": "80951.88281",
        "Average of total_tax_rate": "6.31361286",
        "latitude": "48.8243455",
        "longitude": "-100.8431321"
    },
    {
        "\ufeffRow Labels": "Boulder County",
        "Average of housing_cost": "22851.6",
        "Average of food_cost": "10610.41141",
        "Average of median_family_income": "115841.3828",
        "Average of total_tax_rate": "13.61234524",
        "latitude": "40.102555",
        "longitude": "-105.3632079"
    },
    {
        "\ufeffRow Labels": "Boundary County",
        "Average of housing_cost": "9895.2",
        "Average of food_cost": "9347.905908",
        "Average of median_family_income": "62790.41406",
        "Average of total_tax_rate": "11.19447662",
        "latitude": "48.7846346",
        "longitude": "-116.4339511"
    },
    {
        "\ufeffRow Labels": "Bourbon County",
        "Average of housing_cost": "9734.017308",
        "Average of food_cost": "7816.783644",
        "Average of median_family_income": "59338.73828",
        "Average of total_tax_rate": "11.92147326",
        "latitude": "37.8485797",
        "longitude": "-94.8679591"
    },
    {
        "\ufeffRow Labels": "Bowie County",
        "Average of housing_cost": "10580.80986",
        "Average of food_cost": "7601.888904",
        "Average of median_family_income": "63736.12109",
        "Average of total_tax_rate": "6.970229816",
        "latitude": "33.4198886",
        "longitude": "-94.4479626"
    },
    {
        "\ufeffRow Labels": "Bowman County",
        "Average of housing_cost": "9895.2",
        "Average of food_cost": "9133.01196",
        "Average of median_family_income": "90835.08594",
        "Average of total_tax_rate": "6.119226546",
        "latitude": "46.1010498",
        "longitude": "-103.5086625"
    },
    {
        "\ufeffRow Labels": "Box Butte County",
        "Average of housing_cost": "9476.4",
        "Average of food_cost": "8192.84868",
        "Average of median_family_income": "74671.82031",
        "Average of total_tax_rate": "12.60141843",
        "latitude": "42.2130279",
        "longitude": "-103.0700157"
    },
    {
        "\ufeffRow Labels": "Box Elder County",
        "Average of housing_cost": "10324.8",
        "Average of food_cost": "8273.434152",
        "Average of median_family_income": "71243.24219",
        "Average of total_tax_rate": "11.12941008",
        "latitude": "41.3586056",
        "longitude": "-113.2112072"
    },
    {
        "\ufeffRow Labels": "Boyd County",
        "Average of housing_cost": "9894.760212",
        "Average of food_cost": "8031.678216",
        "Average of median_family_income": "64995.52148",
        "Average of total_tax_rate": "13.64362334",
        "latitude": "38.3608934",
        "longitude": "-82.6945926"
    },
    {
        "\ufeffRow Labels": "Boyle County",
        "Average of housing_cost": "9735.6",
        "Average of food_cost": "6876.620676",
        "Average of median_family_income": "64558.60547",
        "Average of total_tax_rate": "10.46304259",
        "latitude": "37.6240938",
        "longitude": "-84.8540572"
    },
    {
        "\ufeffRow Labels": "Bracken County",
        "Average of housing_cost": "8657.597088",
        "Average of food_cost": "7977.95502",
        "Average of median_family_income": "69252.22656",
        "Average of total_tax_rate": "11.24404642",
        "latitude": "38.686946",
        "longitude": "-84.0751461"
    },
    {
        "\ufeffRow Labels": "Bradford County",
        "Average of housing_cost": "10202.4",
        "Average of food_cost": "7870.507158",
        "Average of median_family_income": "61049.42969",
        "Average of total_tax_rate": "9.452979103",
        "latitude": "41.7746685",
        "longitude": "-76.5264613"
    },
    {
        "\ufeffRow Labels": "Bradley County",
        "Average of housing_cost": "9442.052154",
        "Average of food_cost": "8286.865452",
        "Average of median_family_income": "59197.0332",
        "Average of total_tax_rate": "8.763170692",
        "latitude": "33.4494147",
        "longitude": "-92.16876"
    },
    {
        "\ufeffRow Labels": "Branch County",
        "Average of housing_cost": "10034.4",
        "Average of food_cost": "7010.929632",
        "Average of median_family_income": "63060.46875",
        "Average of total_tax_rate": "10.44878096",
        "latitude": "41.916753",
        "longitude": "-85.0649374"
    },
    {
        "\ufeffRow Labels": "Brantley County",
        "Average of housing_cost": "8102.434608",
        "Average of food_cost": "8595.775872",
        "Average of median_family_income": "51319.73828",
        "Average of total_tax_rate": "11.06452897",
        "latitude": "31.1928547",
        "longitude": "-81.9943569"
    },
    {
        "\ufeffRow Labels": "Braxton County",
        "Average of housing_cost": "8959.2",
        "Average of food_cost": "7601.888904",
        "Average of median_family_income": "50830.96875",
        "Average of total_tax_rate": "18.65042221",
        "latitude": "38.699643",
        "longitude": "-80.7012614"
    },
    {
        "\ufeffRow Labels": "Brazoria County",
        "Average of housing_cost": "14901.6",
        "Average of food_cost": "7521.303768",
        "Average of median_family_income": "97189.08594",
        "Average of total_tax_rate": "6.783824028",
        "latitude": "29.18161",
        "longitude": "-95.4993375"
    },
    {
        "\ufeffRow Labels": "Brazos County",
        "Average of housing_cost": "12569.2935",
        "Average of food_cost": "7279.54812",
        "Average of median_family_income": "74160.46094",
        "Average of total_tax_rate": "6.937844564",
        "latitude": "30.6993189",
        "longitude": "-96.3497772"
    },
    {
        "\ufeffRow Labels": "Breathitt County",
        "Average of housing_cost": "8407.2",
        "Average of food_cost": "7655.612448",
        "Average of median_family_income": "38597.36328",
        "Average of total_tax_rate": "15.96113123",
        "latitude": "37.5248869",
        "longitude": "-83.2943551"
    },
    {
        "\ufeffRow Labels": "Breckinridge County",
        "Average of housing_cost": "8475.6",
        "Average of food_cost": "7628.75094",
        "Average of median_family_income": "64677.71875",
        "Average of total_tax_rate": "9.923223701",
        "latitude": "37.7406389",
        "longitude": "-86.4109353"
    },
    {
        "\ufeffRow Labels": "Bremer County",
        "Average of housing_cost": "9549.6",
        "Average of food_cost": "8300.295804",
        "Average of median_family_income": "88338.875",
        "Average of total_tax_rate": "9.561511907",
        "latitude": "42.7669649",
        "longitude": "-92.3099856"
    },
    {
        "\ufeffRow Labels": "Brevard County",
        "Average of housing_cost": "14779.2",
        "Average of food_cost": "9106.150788",
        "Average of median_family_income": "73043.27344",
        "Average of total_tax_rate": "8.760732058",
        "latitude": "28.2100203",
        "longitude": "-80.7997185"
    },
    {
        "\ufeffRow Labels": "Brewster County",
        "Average of housing_cost": "10831.2",
        "Average of food_cost": "8354.01942",
        "Average of median_family_income": "67607.25",
        "Average of total_tax_rate": "6.668162222",
        "latitude": "29.8462742",
        "longitude": "-103.2400734"
    },
    {
        "\ufeffRow Labels": "Briscoe County",
        "Average of housing_cost": "9907.2",
        "Average of food_cost": "7682.474496",
        "Average of median_family_income": "55756.65234",
        "Average of total_tax_rate": "7.983170805",
        "latitude": "34.4795161",
        "longitude": "-101.1875029"
    },
    {
        "\ufeffRow Labels": "Bristol Bay Borough",
        "Average of housing_cost": "14144.4",
        "Average of food_cost": "8435.054736",
        "Average of median_family_income": "100848.6953",
        "Average of total_tax_rate": "8.818487236",
        "latitude": "58.7370341",
        "longitude": "-156.8753867"
    },
    {
        "\ufeffRow Labels": "Bristol city",
        "Average of housing_cost": "9302.250744",
        "Average of food_cost": "8085.401268",
        "Average of median_family_income": "55347.97656",
        "Average of total_tax_rate": "13.42737969",
        "latitude": "36.6176148",
        "longitude": "-82.1484049"
    },
    {
        "\ufeffRow Labels": "Bristol County",
        "Average of housing_cost": "14936.27437",
        "Average of food_cost": "11120.78508",
        "Average of median_family_income": "102630.75",
        "Average of total_tax_rate": "10.74336819",
        "latitude": "41.7425538",
        "longitude": "-71.0856545"
    },
    {
        "\ufeffRow Labels": "Broadwater County",
        "Average of housing_cost": "10692",
        "Average of food_cost": "8837.532324",
        "Average of median_family_income": "75929.67969",
        "Average of total_tax_rate": "12.40655344",
        "latitude": "46.3252827",
        "longitude": "-111.4969303"
    },
    {
        "\ufeffRow Labels": "Bronx County",
        "Average of housing_cost": "21696.50436",
        "Average of food_cost": "9025.56438",
        "Average of median_family_income": "48566.81641",
        "Average of total_tax_rate": "34.52578075",
        "latitude": "40.8506558",
        "longitude": "-73.8665241"
    },
    {
        "\ufeffRow Labels": "Brooke County",
        "Average of housing_cost": "8665.03656",
        "Average of food_cost": "8031.678264",
        "Average of median_family_income": "68114.50781",
        "Average of total_tax_rate": "13.22779128",
        "latitude": "40.2729451",
        "longitude": "-80.5699497"
    },
    {
        "\ufeffRow Labels": "Brookings County",
        "Average of housing_cost": "10519.2",
        "Average of food_cost": "9186.735696",
        "Average of median_family_income": "89316.40625",
        "Average of total_tax_rate": "6.688372212",
        "latitude": "44.3763598",
        "longitude": "-96.7925213"
    },
    {
        "\ufeffRow Labels": "Brooks County",
        "Average of housing_cost": "9128.20869",
        "Average of food_cost": "7548.1662",
        "Average of median_family_income": "41373.90137",
        "Average of total_tax_rate": "11.65879771",
        "latitude": "26.9879856",
        "longitude": "-98.2071041"
    },
    {
        "\ufeffRow Labels": "Broome County",
        "Average of housing_cost": "11014.40334",
        "Average of food_cost": "8354.01942",
        "Average of median_family_income": "70619.96094",
        "Average of total_tax_rate": "14.58696914",
        "latitude": "42.1455623",
        "longitude": "-75.8404114"
    },
    {
        "\ufeffRow Labels": "Broomfield County",
        "Average of housing_cost": "25799.1",
        "Average of food_cost": "10341.79296",
        "Average of median_family_income": "122209.7578",
        "Average of total_tax_rate": "14.30513694",
        "latitude": "39.9403995",
        "longitude": "-105.05208"
    },
    {
        "\ufeffRow Labels": "Broward County",
        "Average of housing_cost": "20329.2",
        "Average of food_cost": "9589.662324",
        "Average of median_family_income": "73116.17188",
        "Average of total_tax_rate": "12.26292437",
        "latitude": "26.1598074",
        "longitude": "-80.4623642"
    },
    {
        "\ufeffRow Labels": "Brown County",
        "Average of housing_cost": "10271.53454",
        "Average of food_cost": "7960.046505",
        "Average of median_family_income": "73576.0803",
        "Average of total_tax_rate": "9.757286704",
        "latitude": "31.7525184",
        "longitude": "-98.9904722"
    },
    {
        "\ufeffRow Labels": "Brule County",
        "Average of housing_cost": "9649.2",
        "Average of food_cost": "9321.045048",
        "Average of median_family_income": "68837.39063",
        "Average of total_tax_rate": "8.451827734",
        "latitude": "43.6848301",
        "longitude": "-99.0538876"
    },
    {
        "\ufeffRow Labels": "Brunswick County",
        "Average of housing_cost": "10299.6",
        "Average of food_cost": "8313.727206",
        "Average of median_family_income": "63028.63672",
        "Average of total_tax_rate": "12.85161004",
        "latitude": "34.0718195",
        "longitude": "-78.1914215"
    },
    {
        "\ufeffRow Labels": "Bryan County",
        "Average of housing_cost": "12950.31442",
        "Average of food_cost": "9079.288212",
        "Average of median_family_income": "72667.9668",
        "Average of total_tax_rate": "13.61894725",
        "latitude": "32.0034889",
        "longitude": "-81.4241017"
    },
    {
        "\ufeffRow Labels": "Buchanan County",
        "Average of housing_cost": "9766.120712",
        "Average of food_cost": "7825.737936",
        "Average of median_family_income": "62360.85677",
        "Average of total_tax_rate": "12.76846113",
        "latitude": "39.6733203",
        "longitude": "-94.794829"
    },
    {
        "\ufeffRow Labels": "Buckingham County",
        "Average of housing_cost": "9859.2",
        "Average of food_cost": "8864.39334",
        "Average of median_family_income": "60623.80859",
        "Average of total_tax_rate": "14.03422608",
        "latitude": "37.5558826",
        "longitude": "-78.5547172"
    },
    {
        "\ufeffRow Labels": "Bucks County",
        "Average of housing_cost": "17122.49347",
        "Average of food_cost": "9482.21514",
        "Average of median_family_income": "112165.3438",
        "Average of total_tax_rate": "11.23946506",
        "latitude": "40.3451668",
        "longitude": "-75.1263909"
    },
    {
        "\ufeffRow Labels": "Buena Vista city",
        "Average of housing_cost": "9973.657452",
        "Average of food_cost": "8300.295804",
        "Average of median_family_income": "38581.96094",
        "Average of total_tax_rate": "18.98576423",
        "latitude": "32.3226521",
        "longitude": "-84.51140905196792"
    },
    {
        "\ufeffRow Labels": "Buena Vista County",
        "Average of housing_cost": "9303.6",
        "Average of food_cost": "7816.784136",
        "Average of median_family_income": "71630.35938",
        "Average of total_tax_rate": "9.719843096",
        "latitude": "42.7445814",
        "longitude": "-95.1127525"
    },
    {
        "\ufeffRow Labels": "Buffalo County",
        "Average of housing_cost": "9822",
        "Average of food_cost": "8676.361212",
        "Average of median_family_income": "62488.18359",
        "Average of total_tax_rate": "12.81348122",
        "latitude": "40.8421618",
        "longitude": "-99.0845451"
    },
    {
        "\ufeffRow Labels": "Bullitt County",
        "Average of housing_cost": "11534.75138",
        "Average of food_cost": "7870.507632",
        "Average of median_family_income": "75442.96094",
        "Average of total_tax_rate": "12.01354664",
        "latitude": "37.9749498",
        "longitude": "-85.6742394"
    },
    {
        "\ufeffRow Labels": "Bulloch County",
        "Average of housing_cost": "9799.2",
        "Average of food_cost": "8354.01942",
        "Average of median_family_income": "58768.33594",
        "Average of total_tax_rate": "10.20446011",
        "latitude": "32.3846338",
        "longitude": "-81.744832"
    },
    {
        "\ufeffRow Labels": "Bullock County",
        "Average of housing_cost": "8890.8",
        "Average of food_cost": "8918.117472",
        "Average of median_family_income": "44495.45313",
        "Average of total_tax_rate": "17.78563779",
        "latitude": "32.09929",
        "longitude": "-85.7091657"
    },
    {
        "\ufeffRow Labels": "Buncombe County",
        "Average of housing_cost": "17936.15964",
        "Average of food_cost": "8246.572128",
        "Average of median_family_income": "69427.8125",
        "Average of total_tax_rate": "18.84182206",
        "latitude": "35.6292222",
        "longitude": "-82.5255603"
    },
    {
        "\ufeffRow Labels": "Bureau County",
        "Average of housing_cost": "9217.2",
        "Average of food_cost": "8192.84868",
        "Average of median_family_income": "72504.1875",
        "Average of total_tax_rate": "11.49807399",
        "latitude": "41.4016294",
        "longitude": "-89.5341179"
    },
    {
        "\ufeffRow Labels": "Burke County",
        "Average of housing_cost": "8702.209056",
        "Average of food_cost": "8022.7242",
        "Average of median_family_income": "67560.70313",
        "Average of total_tax_rate": "9.421895356",
        "latitude": "35.7270403",
        "longitude": "-81.6632108"
    },
    {
        "\ufeffRow Labels": "Burleigh County",
        "Average of housing_cost": "12070.63154",
        "Average of food_cost": "8756.94678",
        "Average of median_family_income": "97655.26563",
        "Average of total_tax_rate": "9.196259424",
        "latitude": "46.9498874",
        "longitude": "-100.5127667"
    },
    {
        "\ufeffRow Labels": "Burleson County",
        "Average of housing_cost": "9718.663128",
        "Average of food_cost": "7386.995016",
        "Average of median_family_income": "74162.50781",
        "Average of total_tax_rate": "6.218583497",
        "latitude": "30.4764878",
        "longitude": "-96.6353488"
    },
    {
        "\ufeffRow Labels": "Burlington County",
        "Average of housing_cost": "18767.81364",
        "Average of food_cost": "9052.426344",
        "Average of median_family_income": "108317.8281",
        "Average of total_tax_rate": "10.71002223",
        "latitude": "39.9325409",
        "longitude": "-74.7226665"
    },
    {
        "\ufeffRow Labels": "Burnet County",
        "Average of housing_cost": "11522.4",
        "Average of food_cost": "7897.369332",
        "Average of median_family_income": "72705.44531",
        "Average of total_tax_rate": "6.626459021",
        "latitude": "30.7763939",
        "longitude": "-98.1700016"
    },
    {
        "\ufeffRow Labels": "Burnett County",
        "Average of housing_cost": "9393.6",
        "Average of food_cost": "8246.572128",
        "Average of median_family_income": "63559.50391",
        "Average of total_tax_rate": "13.12169452",
        "latitude": "45.8652437",
        "longitude": "-92.2673161"
    },
    {
        "\ufeffRow Labels": "Burt County",
        "Average of housing_cost": "9154.8",
        "Average of food_cost": "8085.401268",
        "Average of median_family_income": "72519.58594",
        "Average of total_tax_rate": "10.40870539",
        "latitude": "41.855662",
        "longitude": "-96.3357902"
    },
    {
        "\ufeffRow Labels": "Butler County",
        "Average of housing_cost": "10128.30351",
        "Average of food_cost": "7917.515618",
        "Average of median_family_income": "70997.19189",
        "Average of total_tax_rate": "11.3632186",
        "latitude": "40.9162435",
        "longitude": "-79.92623988102099"
    },
    {
        "\ufeffRow Labels": "Butte County",
        "Average of housing_cost": "12133.2",
        "Average of food_cost": "8694.269116",
        "Average of median_family_income": "62476.54557",
        "Average of total_tax_rate": "13.13719599",
        "latitude": "39.6519275",
        "longitude": "-121.5858444"
    },
    {
        "\ufeffRow Labels": "Butts County",
        "Average of housing_cost": "11301.6",
        "Average of food_cost": "9509.077128",
        "Average of median_family_income": "55110.78125",
        "Average of total_tax_rate": "15.28782868",
        "latitude": "33.2825083",
        "longitude": "-83.9548161"
    },
    {
        "\ufeffRow Labels": "Cabarrus County",
        "Average of housing_cost": "13150.16822",
        "Average of food_cost": "8058.540012",
        "Average of median_family_income": "84125.80469",
        "Average of total_tax_rate": "10.67011994",
        "latitude": "35.4045503",
        "longitude": "-80.564371"
    },
    {
        "\ufeffRow Labels": "Cabell County",
        "Average of housing_cost": "10734.3039",
        "Average of food_cost": "7763.060736",
        "Average of median_family_income": "59372.10938",
        "Average of total_tax_rate": "20.10798041",
        "latitude": "38.4200892",
        "longitude": "-82.2316907"
    },
    {
        "\ufeffRow Labels": "Cache County",
        "Average of housing_cost": "10569.37068",
        "Average of food_cost": "7789.922172",
        "Average of median_family_income": "69871.40625",
        "Average of total_tax_rate": "11.49817938",
        "latitude": "41.7042978",
        "longitude": "-111.7451159"
    },
    {
        "\ufeffRow Labels": "Caddo County",
        "Average of housing_cost": "9086.4",
        "Average of food_cost": "8004.816336",
        "Average of median_family_income": "59067.14063",
        "Average of total_tax_rate": "13.5932923",
        "latitude": "35.131317",
        "longitude": "-98.3797949"
    },
    {
        "\ufeffRow Labels": "Caddo Parish",
        "Average of housing_cost": "10060.7341",
        "Average of food_cost": "8461.46742",
        "Average of median_family_income": "57509.44531",
        "Average of total_tax_rate": "10.71598064",
        "latitude": "32.529173",
        "longitude": "-93.8931785"
    },
    {
        "\ufeffRow Labels": "Calaveras County",
        "Average of housing_cost": "14245.2",
        "Average of food_cost": "11926.63865",
        "Average of median_family_income": "83174.96094",
        "Average of total_tax_rate": "13.48226698",
        "latitude": "38.2558181",
        "longitude": "-120.4981492"
    },
    {
        "\ufeffRow Labels": "Calcasieu Parish",
        "Average of housing_cost": "10984.80144",
        "Average of food_cost": "8676.360984",
        "Average of median_family_income": "67001.42969",
        "Average of total_tax_rate": "10.74199461",
        "latitude": "30.2232015",
        "longitude": "-93.3434067"
    },
    {
        "\ufeffRow Labels": "Caldwell County",
        "Average of housing_cost": "9731.233326",
        "Average of food_cost": "7756.344813",
        "Average of median_family_income": "61335.39941",
        "Average of total_tax_rate": "11.09239246",
        "latitude": "29.8298971",
        "longitude": "-97.5959641"
    },
    {
        "\ufeffRow Labels": "Caldwell Parish",
        "Average of housing_cost": "9726",
        "Average of food_cost": "8165.987184",
        "Average of median_family_income": "49863.69922",
        "Average of total_tax_rate": "13.3226868",
        "latitude": "32.0820785",
        "longitude": "-92.1130105"
    },
    {
        "\ufeffRow Labels": "Caledonia County",
        "Average of housing_cost": "10803.6",
        "Average of food_cost": "10341.79296",
        "Average of median_family_income": "66743.69531",
        "Average of total_tax_rate": "12.24872596",
        "latitude": "44.46383305",
        "longitude": "-72.1083608591196"
    },
    {
        "\ufeffRow Labels": "Calhoun County",
        "Average of housing_cost": "9267.908919",
        "Average of food_cost": "7973.070487",
        "Average of median_family_income": "60634.17188",
        "Average of total_tax_rate": "11.17089606",
        "latitude": "28.5031572",
        "longitude": "-96.6736551"
    },
    {
        "\ufeffRow Labels": "Callahan County",
        "Average of housing_cost": "10445.5021",
        "Average of food_cost": "7709.335992",
        "Average of median_family_income": "65228.09766",
        "Average of total_tax_rate": "7.377726398",
        "latitude": "32.2810409",
        "longitude": "-99.3612437"
    },
    {
        "\ufeffRow Labels": "Callaway County",
        "Average of housing_cost": "9710.4",
        "Average of food_cost": "8246.572128",
        "Average of median_family_income": "70760.63281",
        "Average of total_tax_rate": "11.25696715",
        "latitude": "38.8491265",
        "longitude": "-91.9257607"
    },
    {
        "\ufeffRow Labels": "Calloway County",
        "Average of housing_cost": "10306.8",
        "Average of food_cost": "8192.84868",
        "Average of median_family_income": "60022.08984",
        "Average of total_tax_rate": "14.51878191",
        "latitude": "36.6257937",
        "longitude": "-88.271076"
    },
    {
        "\ufeffRow Labels": "Calumet County",
        "Average of housing_cost": "10288.926",
        "Average of food_cost": "7789.922172",
        "Average of median_family_income": "93110.53125",
        "Average of total_tax_rate": "8.898551432",
        "latitude": "44.0751086",
        "longitude": "-88.2144321"
    },
    {
        "\ufeffRow Labels": "Calvert County",
        "Average of housing_cost": "20801.98968",
        "Average of food_cost": "10556.68745",
        "Average of median_family_income": "126809.9375",
        "Average of total_tax_rate": "10.84215072",
        "latitude": "38.5288529",
        "longitude": "-76.537764"
    },
    {
        "\ufeffRow Labels": "Camas County",
        "Average of housing_cost": "9908.4",
        "Average of food_cost": "8407.743948",
        "Average of median_family_income": "62893.09375",
        "Average of total_tax_rate": "11.34567703",
        "latitude": "43.4064019",
        "longitude": "-114.8070143"
    },
    {
        "\ufeffRow Labels": "Cambria County",
        "Average of housing_cost": "9220.8",
        "Average of food_cost": "7843.645656",
        "Average of median_family_income": "65347.21094",
        "Average of total_tax_rate": "10.37296082",
        "latitude": "40.4843583",
        "longitude": "-78.718852"
    },
    {
        "\ufeffRow Labels": "Camden County",
        "Average of housing_cost": "12442.9316",
        "Average of food_cost": "8830.816737",
        "Average of median_family_income": "75541.79492",
        "Average of total_tax_rate": "11.33575995",
        "latitude": "30.9298212",
        "longitude": "-81.6225075"
    },
    {
        "\ufeffRow Labels": "Cameron County",
        "Average of housing_cost": "9438",
        "Average of food_cost": "7104.946032",
        "Average of median_family_income": "51577.98633",
        "Average of total_tax_rate": "9.151979287",
        "latitude": "26.1291189",
        "longitude": "-97.4134281"
    },
    {
        "\ufeffRow Labels": "Cameron Parish",
        "Average of housing_cost": "11948.61221",
        "Average of food_cost": "7709.335992",
        "Average of median_family_income": "65246.58203",
        "Average of total_tax_rate": "12.75980263",
        "latitude": "29.888055",
        "longitude": "-93.1843025"
    },
    {
        "\ufeffRow Labels": "Camp County",
        "Average of housing_cost": "9975.6",
        "Average of food_cost": "7977.95502",
        "Average of median_family_income": "60023.11719",
        "Average of total_tax_rate": "7.111853639",
        "latitude": "32.9723128",
        "longitude": "-94.9852858"
    },
    {
        "\ufeffRow Labels": "Campbell County",
        "Average of housing_cost": "10553.27222",
        "Average of food_cost": "8305.668523",
        "Average of median_family_income": "72588.79766",
        "Average of total_tax_rate": "10.14040037",
        "latitude": "38.9339799",
        "longitude": "-84.3715286"
    },
    {
        "\ufeffRow Labels": "Canadian County",
        "Average of housing_cost": "12866.71002",
        "Average of food_cost": "8542.052448",
        "Average of median_family_income": "86975.25",
        "Average of total_tax_rate": "11.1840277",
        "latitude": "35.5438102",
        "longitude": "-98.0031532"
    },
    {
        "\ufeffRow Labels": "Candler County",
        "Average of housing_cost": "8554.8",
        "Average of food_cost": "8139.124812",
        "Average of median_family_income": "41114.11328",
        "Average of total_tax_rate": "13.27175804",
        "latitude": "32.4146577",
        "longitude": "-82.0930776"
    },
    {
        "\ufeffRow Labels": "Cannon County",
        "Average of housing_cost": "9047.736024",
        "Average of food_cost": "8380.881264",
        "Average of median_family_income": "67060.98438",
        "Average of total_tax_rate": "6.572962513",
        "latitude": "35.8044159",
        "longitude": "-86.0512075"
    },
    {
        "\ufeffRow Labels": "Canyon County",
        "Average of housing_cost": "12568.44443",
        "Average of food_cost": "8085.401268",
        "Average of median_family_income": "61812.875",
        "Average of total_tax_rate": "13.22801614",
        "latitude": "43.6435692",
        "longitude": "-116.7017144"
    },
    {
        "\ufeffRow Labels": "Cape Girardeau County",
        "Average of housing_cost": "11194.55233",
        "Average of food_cost": "7682.474496",
        "Average of median_family_income": "71568.75",
        "Average of total_tax_rate": "12.63797735",
        "latitude": "37.3998985",
        "longitude": "-89.6918025"
    },
    {
        "\ufeffRow Labels": "Cape May County",
        "Average of housing_cost": "17355.6",
        "Average of food_cost": "10126.89889",
        "Average of median_family_income": "85940.20313",
        "Average of total_tax_rate": "13.12075348",
        "latitude": "39.1765386",
        "longitude": "-74.8012119"
    },
    {
        "\ufeffRow Labels": "Carbon County",
        "Average of housing_cost": "10986.62415",
        "Average of food_cost": "8468.182479",
        "Average of median_family_income": "72104.49512",
        "Average of total_tax_rate": "12.24147034",
        "latitude": "40.8908468",
        "longitude": "-75.7212917"
    },
    {
        "\ufeffRow Labels": "Caribou County",
        "Average of housing_cost": "9477.6",
        "Average of food_cost": "8139.124812",
        "Average of median_family_income": "67128.75",
        "Average of total_tax_rate": "10.0533589",
        "latitude": "42.780196",
        "longitude": "-111.6052607"
    },
    {
        "\ufeffRow Labels": "Carlisle County",
        "Average of housing_cost": "8418",
        "Average of food_cost": "7198.96254",
        "Average of median_family_income": "63143.64063",
        "Average of total_tax_rate": "11.90457878",
        "latitude": "36.8432751",
        "longitude": "-88.9636817"
    },
    {
        "\ufeffRow Labels": "Carlton County",
        "Average of housing_cost": "11401.25504",
        "Average of food_cost": "8730.084588",
        "Average of median_family_income": "79121.05469",
        "Average of total_tax_rate": "12.82922494",
        "latitude": "46.5799933",
        "longitude": "-92.7206334"
    },
    {
        "\ufeffRow Labels": "Caroline County",
        "Average of housing_cost": "13598.27336",
        "Average of food_cost": "8636.06832",
        "Average of median_family_income": "75428.58594",
        "Average of total_tax_rate": "12.29011834",
        "latitude": "38.0320305",
        "longitude": "-77.362363"
    },
    {
        "\ufeffRow Labels": "Carroll County",
        "Average of housing_cost": "9901.002347",
        "Average of food_cost": "8250.705102",
        "Average of median_family_income": "69918.47987",
        "Average of total_tax_rate": "9.778277303",
        "latitude": "42.0647352",
        "longitude": "-89.9556785"
    },
    {
        "\ufeffRow Labels": "Carson City",
        "Average of housing_cost": "13693.2",
        "Average of food_cost": "8703.223212",
        "Average of median_family_income": "73747.67188",
        "Average of total_tax_rate": "9.982684043",
        "latitude": "39.1698022",
        "longitude": "-119.7575628"
    },
    {
        "\ufeffRow Labels": "Carson County",
        "Average of housing_cost": "11589.78986",
        "Average of food_cost": "8219.710764",
        "Average of median_family_income": "99124.64844",
        "Average of total_tax_rate": "5.820380601",
        "latitude": "35.3636563",
        "longitude": "-101.3353895"
    },
    {
        "\ufeffRow Labels": "Carter County",
        "Average of housing_cost": "9017.10643",
        "Average of food_cost": "8133.752942",
        "Average of median_family_income": "56670.32422",
        "Average of total_tax_rate": "11.76834711",
        "latitude": "34.2330314",
        "longitude": "-97.2789479"
    },
    {
        "\ufeffRow Labels": "Carteret County",
        "Average of housing_cost": "11131.2",
        "Average of food_cost": "9374.768124",
        "Average of median_family_income": "73341.04688",
        "Average of total_tax_rate": "12.66915609",
        "latitude": "34.8496625",
        "longitude": "-76.5931208"
    },
    {
        "\ufeffRow Labels": "Carver County",
        "Average of housing_cost": "18090.47584",
        "Average of food_cost": "10288.06907",
        "Average of median_family_income": "123232.4766",
        "Average of total_tax_rate": "12.15778991",
        "latitude": "44.807118",
        "longitude": "-93.7871792"
    },
    {
        "\ufeffRow Labels": "Cascade County",
        "Average of housing_cost": "10749.6",
        "Average of food_cost": "8354.01942",
        "Average of median_family_income": "66136.83594",
        "Average of total_tax_rate": "13.73662288",
        "latitude": "47.3271465",
        "longitude": "-111.3281242"
    },
    {
        "\ufeffRow Labels": "Casey County",
        "Average of housing_cost": "8550",
        "Average of food_cost": "6957.206112",
        "Average of median_family_income": "43613.41016",
        "Average of total_tax_rate": "14.60968816",
        "latitude": "37.2911032",
        "longitude": "-84.9146294"
    },
    {
        "\ufeffRow Labels": "Cass County",
        "Average of housing_cost": "10386.9887",
        "Average of food_cost": "8204.787479",
        "Average of median_family_income": "72146.85156",
        "Average of total_tax_rate": "10.28847251",
        "latitude": "33.0560857",
        "longitude": "-94.3510366"
    },
    {
        "\ufeffRow Labels": "Cassia County",
        "Average of housing_cost": "9996",
        "Average of food_cost": "8542.052448",
        "Average of median_family_income": "60098.07422",
        "Average of total_tax_rate": "11.25887795",
        "latitude": "42.2219306",
        "longitude": "-113.5777087"
    },
    {
        "\ufeffRow Labels": "Castro County",
        "Average of housing_cost": "9871.2",
        "Average of food_cost": "8407.743948",
        "Average of median_family_income": "62948.54297",
        "Average of total_tax_rate": "6.933254074",
        "latitude": "34.4952536",
        "longitude": "-102.2592314"
    },
    {
        "\ufeffRow Labels": "Caswell County",
        "Average of housing_cost": "9130.8",
        "Average of food_cost": "7548.16578",
        "Average of median_family_income": "61276.87109",
        "Average of total_tax_rate": "9.811957518",
        "latitude": "36.4035101",
        "longitude": "-79.3357315"
    },
    {
        "\ufeffRow Labels": "Catahoula Parish",
        "Average of housing_cost": "9780",
        "Average of food_cost": "8112.263376",
        "Average of median_family_income": "61256.33594",
        "Average of total_tax_rate": "10.87741181",
        "latitude": "31.7294681",
        "longitude": "-91.8487107"
    },
    {
        "\ufeffRow Labels": "Catawba County",
        "Average of housing_cost": "9606.226152",
        "Average of food_cost": "7897.369332",
        "Average of median_family_income": "65755.88281",
        "Average of total_tax_rate": "10.99643815",
        "latitude": "35.6740563",
        "longitude": "-81.2107215"
    },
    {
        "\ufeffRow Labels": "Catoosa County",
        "Average of housing_cost": "10120.96608",
        "Average of food_cost": "8085.401268",
        "Average of median_family_income": "69681.44531",
        "Average of total_tax_rate": "10.36363508",
        "latitude": "34.8911137",
        "longitude": "-85.131315"
    },
    {
        "\ufeffRow Labels": "Catron County",
        "Average of housing_cost": "9706.8",
        "Average of food_cost": "7977.95502",
        "Average of median_family_income": "55726.875",
        "Average of total_tax_rate": "11.61204555",
        "latitude": "33.9026943",
        "longitude": "-108.3800825"
    },
    {
        "\ufeffRow Labels": "Cattaraugus County",
        "Average of housing_cost": "9848.4",
        "Average of food_cost": "7709.335992",
        "Average of median_family_income": "62638.44141",
        "Average of total_tax_rate": "10.97011449",
        "latitude": "42.2234823",
        "longitude": "-78.6477096"
    },
    {
        "\ufeffRow Labels": "Cavalier County",
        "Average of housing_cost": "10090.8",
        "Average of food_cost": "8461.46742",
        "Average of median_family_income": "83499.4375",
        "Average of total_tax_rate": "6.471002591",
        "latitude": "48.7664381",
        "longitude": "-98.5001391"
    },
    {
        "\ufeffRow Labels": "Cayuga County",
        "Average of housing_cost": "10818",
        "Average of food_cost": "8139.124812",
        "Average of median_family_income": "73835.97656",
        "Average of total_tax_rate": "11.14924797",
        "latitude": "42.8093409",
        "longitude": "-76.5700777"
    },
    {
        "\ufeffRow Labels": "Cecil County",
        "Average of housing_cost": "15700.26671",
        "Average of food_cost": "8246.572128",
        "Average of median_family_income": "94147.625",
        "Average of total_tax_rate": "9.972847226",
        "latitude": "39.5729428",
        "longitude": "-75.9381806"
    },
    {
        "\ufeffRow Labels": "Cedar County",
        "Average of housing_cost": "9358",
        "Average of food_cost": "7825.737808",
        "Average of median_family_income": "70459.43229",
        "Average of total_tax_rate": "10.56475989",
        "latitude": "41.7608608",
        "longitude": "-91.1263198"
    },
    {
        "\ufeffRow Labels": "Centre County",
        "Average of housing_cost": "13408.8",
        "Average of food_cost": "9643.386192",
        "Average of median_family_income": "89726.11719",
        "Average of total_tax_rate": "11.68789818",
        "latitude": "40.9381735",
        "longitude": "-77.7865722"
    },
    {
        "\ufeffRow Labels": "Cerro Gordo County",
        "Average of housing_cost": "9858",
        "Average of food_cost": "7897.369332",
        "Average of median_family_income": "74177.91406",
        "Average of total_tax_rate": "9.827354797",
        "latitude": "43.0742443",
        "longitude": "-93.2548746"
    },
    {
        "\ufeffRow Labels": "Chaffee County",
        "Average of housing_cost": "11654.4",
        "Average of food_cost": "9213.59754",
        "Average of median_family_income": "73749.72656",
        "Average of total_tax_rate": "10.79764501",
        "latitude": "38.7413025",
        "longitude": "-106.1825012"
    },
    {
        "\ufeffRow Labels": "Chambers County",
        "Average of housing_cost": "11088.22831",
        "Average of food_cost": "7749.629052",
        "Average of median_family_income": "81641.91406",
        "Average of total_tax_rate": "9.574153915",
        "latitude": "29.7191125",
        "longitude": "-94.5412295"
    },
    {
        "\ufeffRow Labels": "Champaign County",
        "Average of housing_cost": "10650.776",
        "Average of food_cost": "8071.970892",
        "Average of median_family_income": "78555.27344",
        "Average of total_tax_rate": "9.794137529",
        "latitude": "40.1346857",
        "longitude": "-88.1975558"
    },
    {
        "\ufeffRow Labels": "Chariton County",
        "Average of housing_cost": "8894.4",
        "Average of food_cost": "7413.856584",
        "Average of median_family_income": "62192.80078",
        "Average of total_tax_rate": "11.48601756",
        "latitude": "39.5372927",
        "longitude": "-92.9524728"
    },
    {
        "\ufeffRow Labels": "Charles City County",
        "Average of housing_cost": "11225.01382",
        "Average of food_cost": "8649.49956",
        "Average of median_family_income": "78038.78125",
        "Average of total_tax_rate": "12.13463725",
        "latitude": "37.3705777",
        "longitude": "-77.0605098"
    },
    {
        "\ufeffRow Labels": "Charles County",
        "Average of housing_cost": "23019.04332",
        "Average of food_cost": "8864.39334",
        "Average of median_family_income": "114600.9766",
        "Average of total_tax_rate": "12.28322035",
        "latitude": "38.4991611",
        "longitude": "-77.027847"
    },